{
    "type": "FeatureCollection",
    "crs": {
        "type": "name",
        "properties": {
            "name": "urn:ogc:def:crs:OGC:1.3:CRS84"
        }
    },
    "features": [
        {
            "type": "Feature",
            "properties": {
                "廠商": "中華汽車",
                "名稱": "家樂福內湖超級充電站",
                "地址": "臺北市內湖區民善街88號",
                "充電柱數量": "1",
                "行政區": "內湖區"
            },
            "geometry": {
                "type": "Point",
                "coordinates": [
                    121.5750008,
                    25.06037376
                ]
            }
        },
        {
            "type": "Feature",
            "properties": {
                "廠商": "中華汽車",
                "名稱": "順益汽車內湖所超級充電站",
                "地址": "臺北市內湖區民權東路六段13之15號",
                "充電柱數量": "1",
                "行政區": "內湖區"
            },
            "geometry": {
                "type": "Point",
                "coordinates": [
                    121.5788987,
                    25.06743765
                ]
            }
        },
        {
            "type": "Feature",
            "properties": {
                "廠商": "中華汽車",
                "名稱": "家樂福三民店超級充電站",
                "地址": "臺北市松山區三民路160號",
                "充電柱數量": "1",
                "行政區": "松山區"
            },
            "geometry": {
                "type": "Point",
                "coordinates": [
                    121.5638533,
                    25.06193447
                ]
            }
        },
        {
            "type": "Feature",
            "properties": {
                "廠商": "中華汽車",
                "名稱": "中華汽車濱江大樓超級充電站",
                "地址": "臺北市中山區濱江街309號",
                "充電柱數量": "1",
                "行政區": "中山區"
            },
            "geometry": {
                "type": "Point",
                "coordinates": [
                    121.5462843,
                    25.07274017
                ]
            }
        },
        {
            "type": "Feature",
            "properties": {
                "廠商": "中華汽車",
                "名稱": "家樂福重慶超級充電站",
                "地址": "臺北市大同區重慶北路二段171號",
                "充電柱數量": "1",
                "行政區": "大同區"
            },
            "geometry": {
                "type": "Point",
                "coordinates": [
                    121.5138416,
                    25.05929757
                ]
            }
        },
        {
            "type": "Feature",
            "properties": {
                "廠商": "中華汽車",
                "名稱": "環南市場西一門超級充電站",
                "地址": "臺北市萬華區環河南路二段245號",
                "充電柱數量": "2",
                "行政區": "萬華區"
            },
            "geometry": {
                "type": "Point",
                "coordinates": [
                    121.4905841,
                    25.02949848
                ]
            }
        },
        {
            "type": "Feature",
            "properties": {
                "廠商": "中華汽車",
                "名稱": "萬華和平西專賣店超級充電站",
                "地址": "臺北市萬華區和平西路二段149號",
                "充電柱數量": "1",
                "行政區": "萬華區"
            },
            "geometry": {
                "type": "Point",
                "coordinates": [
                    121.5051738,
                    25.03401765
                ]
            }
        },
        {
            "type": "Feature",
            "properties": {
                "廠商": "裕電能源",
                "名稱": "YES台大立體機車停車場充電站",
                "地址": "臺北市大安區基隆路三段156巷口",
                "充電柱數量": "5",
                "行政區": "大安區"
            },
            "geometry": {
                "type": "Point",
                "coordinates": [
                    121.542557,
                    25.016419
                ]
            }
        }
    ]
}