{
    "type": "FeatureCollection",
    "crs": {
        "type": "name",
        "properties": {
            "name": "urn:ogc:def:crs:OGC:1.3:CRS84"
        }
    },
    "features": [
        {
            "type": "Feature",
            "properties": {
                "行政區": "北投區",
                "分隊": "陽明一班",
                "電話": "(02)28617757",
                "地址": "臺北市北投區紗帽路141巷23號",
                "備註": "開放時間06:00~23:00"
            },
            "geometry": {
                "type": "Point",
                "coordinates": [
                    121.5463636,
                    25.15126551
                ]
            }
        },
        {
            "type": "Feature",
            "properties": {
                "行政區": "北投區",
                "分隊": "陽明二班",
                "電話": "(02)28950230",
                "地址": "臺北市北投區新民路73-7號",
                "備註": "開放時間09:00~16:00"
            },
            "geometry": {
                "type": "Point",
                "coordinates": [
                    121.512751,
                    25.141121
                ]
            }
        },
        {
            "type": "Feature",
            "properties": {
                "行政區": "北投區",
                "分隊": "關渡分隊",
                "電話": "(02)28950256",
                "地址": "臺北市北投區大度路3段臨250號",
                "備註": "開放時間06:00~23:00"
            },
            "geometry": {
                "type": "Point",
                "coordinates": [
                    121.4670255,
                    25.12311305
                ]
            }
        },
        {
            "type": "Feature",
            "properties": {
                "行政區": "北投區",
                "分隊": "石牌分隊",
                "電話": "(02)28235650",
                "地址": "臺北市北投區承德路7段393巷200號",
                "備註": "開放時間06:00~23:00"
            },
            "geometry": {
                "type": "Point",
                "coordinates": [
                    121.498363,
                    25.112046
                ]
            }
        },
        {
            "type": "Feature",
            "properties": {
                "行政區": "士林區",
                "分隊": "天母分隊",
                "電話": "(02)28742048",
                "地址": "臺北市士林區中山北路6段763巷臨2號對面(垃圾車駐點)",
                "備註": "開放時間07:00~10:00、14:00 ~17:00、20:00 ~ 22:00"
            },
            "geometry": {
                "type": "Point",
                "coordinates": [
                    121.52781,
                    25.115788
                ]
            }
        },
        {
            "type": "Feature",
            "properties": {
                "行政區": "士林區",
                "分隊": "蘭雅分隊",
                "電話": "(02)28311586",
                "地址": "臺北市士林區文昌路211之3號",
                "備註": "周三、周日開放時間為06:00~16:00，其餘開放時間為06:00~22:00"
            },
            "geometry": {
                "type": "Point",
                "coordinates": [
                    121.520062,
                    25.09997
                ]
            }
        },
        {
            "type": "Feature",
            "properties": {
                "行政區": "士林區",
                "分隊": "社子分隊",
                "電話": "(02)28136658",
                "地址": "臺北市士林區中正路臨692號對面",
                "備註": "開放時間06:00~23:00"
            },
            "geometry": {
                "type": "Point",
                "coordinates": [
                    121.5064713,
                    25.08603319
                ]
            }
        },
        {
            "type": "Feature",
            "properties": {
                "行政區": "內湖區",
                "分隊": "文德分隊",
                "電話": "(02)27915524",
                "地址": "臺北市內湖區民權東路6段臨10之2號",
                "備註": "開放時間06:00~23:00"
            },
            "geometry": {
                "type": "Point",
                "coordinates": [
                    121.575597,
                    25.06596022
                ]
            }
        },
        {
            "type": "Feature",
            "properties": {
                "行政區": "內湖區",
                "分隊": "內湖區隊停車場",
                "電話": "(02)87912409",
                "地址": "臺北市內湖區舊宗路2段臨158號",
                "備註": "開放時間06:00~23:00"
            },
            "geometry": {
                "type": "Point",
                "coordinates": [
                    121.574785,
                    25.070047
                ]
            }
        },
        {
            "type": "Feature",
            "properties": {
                "行政區": "南港區",
                "分隊": "南港區隊停車場",
                "電話": "(02)27835658",
                "地址": "臺北市南港區南深路37號",
                "備註": "開放時間06:00~23:00"
            },
            "geometry": {
                "type": "Point",
                "coordinates": [
                    121.6222459,
                    25.02897201
                ]
            }
        },
        {
            "type": "Feature",
            "properties": {
                "行政區": "南港區",
                "分隊": "南港分隊",
                "電話": "(02)27837522",
                "地址": "臺北市南港區松河街699號",
                "備註": "開放時間06:00~23:00"
            },
            "geometry": {
                "type": "Point",
                "coordinates": [
                    121.6111158,
                    25.06107156
                ]
            }
        },
        {
            "type": "Feature",
            "properties": {
                "行政區": "松山區",
                "分隊": "松山分隊",
                "電話": "(02)27678552",
                "地址": "臺北市松山區南京東路5段356號對面橋下",
                "備註": "開放時間為週三、周日06:00~16:30"
            },
            "geometry": {
                "type": "Point",
                "coordinates": [
                    121.5693422,
                    25.05126751
                ]
            }
        },
        {
            "type": "Feature",
            "properties": {
                "行政區": "中山區",
                "分隊": "中山分隊",
                "電話": "(02)25110958",
                "地址": "臺北市中山區新生北路2段臨30-1號",
                "備註": "開放時間06:00~16:00"
            },
            "geometry": {
                "type": "Point",
                "coordinates": [
                    121.5274773,
                    25.05411503
                ]
            }
        },
        {
            "type": "Feature",
            "properties": {
                "行政區": "中山區",
                "分隊": "大直停車場",
                "電話": "(02)25057649",
                "地址": "臺北市中山區濱江街301巷內",
                "備註": "開放時間06:00~23:00"
            },
            "geometry": {
                "type": "Point",
                "coordinates": [
                    121.5457711,
                    25.07291653
                ]
            }
        },
        {
            "type": "Feature",
            "properties": {
                "行政區": "中山區",
                "分隊": "南京分隊",
                "電話": "(02)27132687",
                "地址": "臺北市中山區長春路350號",
                "備註": "開放時間06:00~11:00、13:30~16:30，僅收受使用專用垃圾袋之一般垃圾及資源回收物(不含廚餘)"
            },
            "geometry": {
                "type": "Point",
                "coordinates": [
                    121.541743,
                    25.054558
                ]
            }
        },
        {
            "type": "Feature",
            "properties": {
                "行政區": "中山區",
                "分隊": "長安分隊",
                "電話": "(02)27775545",
                "地址": "臺北市中山區建國北路1段臨5-1號",
                "備註": "開放時間06:00~11:00、13:30~16:30，僅收受使用專用垃圾袋之一般垃圾及資源回收物(不含廚餘)"
            },
            "geometry": {
                "type": "Point",
                "coordinates": [
                    121.5368513,
                    25.04627592
                ]
            }
        },
        {
            "type": "Feature",
            "properties": {
                "行政區": "大同區",
                "分隊": "大龍分隊",
                "電話": "(02)25860781",
                "地址": "臺北市大同區承德路3段303號之1",
                "備註": "開放時間06:00~11:00、14:00~21:00"
            },
            "geometry": {
                "type": "Point",
                "coordinates": [
                    121.5205942,
                    25.0760032
                ]
            }
        },
        {
            "type": "Feature",
            "properties": {
                "行政區": "大同區",
                "分隊": "建成分隊",
                "電話": "(02)25535107",
                "地址": "臺北市大同區民權西路臨194之1號",
                "備註": "開放時間06:00~16:30加油站旁"
            },
            "geometry": {
                "type": "Point",
                "coordinates": [
                    121.514394,
                    25.062837
                ]
            }
        },
        {
            "type": "Feature",
            "properties": {
                "行政區": "大同區",
                "分隊": "延平分隊",
                "電話": "(02)25521952",
                "地址": "臺北市大同區環河北路1段63號之1",
                "備註": "開放時間06:00~19:00"
            },
            "geometry": {
                "type": "Point",
                "coordinates": [
                    121.507197,
                    25.0525
                ]
            }
        },
        {
            "type": "Feature",
            "properties": {
                "行政區": "中正區",
                "分隊": "師大路停車場",
                "電話": "(02)23654040",
                "地址": "臺北市中正區師大路臨241號",
                "備註": "開放時間06:00~19:00"
            },
            "geometry": {
                "type": "Point",
                "coordinates": [
                    121.5253309,
                    25.0209417
                ]
            }
        },
        {
            "type": "Feature",
            "properties": {
                "行政區": "萬華區",
                "分隊": "大理分隊",
                "電話": "(02)23068781",
                "地址": "臺北市萬華區長順街臨131號",
                "備註": "周三、周日開放時間為06:00~16:30，其餘時間正常開放(06:00~23:00)"
            },
            "geometry": {
                "type": "Point",
                "coordinates": [
                    121.4889982,
                    25.03294612
                ]
            }
        },
        {
            "type": "Feature",
            "properties": {
                "行政區": "萬華區",
                "分隊": "萬華區隊停車場",
                "電話": "(02)25521063",
                "地址": "臺北市萬華區鄭州路及環河北路1段交口",
                "備註": "開放時間06:00~23:00，淡3號疏散門外"
            },
            "geometry": {
                "type": "Point",
                "coordinates": [
                    121.509746,
                    25.050341
                ]
            }
        },
        {
            "type": "Feature",
            "properties": {
                "行政區": "大安區",
                "分隊": "和平分隊",
                "電話": "(02)23625869",
                "地址": "臺北市大安區辛亥路1段臨143號",
                "備註": "開放時間06:00~23:00"
            },
            "geometry": {
                "type": "Point",
                "coordinates": [
                    121.5328038,
                    25.0223046
                ]
            }
        },
        {
            "type": "Feature",
            "properties": {
                "行政區": "大安區",
                "分隊": "瑞安分隊",
                "電話": "(02)23634850",
                "地址": "臺北市大安區建國南路2段臨263號",
                "備註": "開放時間06:00~23:00"
            },
            "geometry": {
                "type": "Point",
                "coordinates": [
                    121.5377804,
                    25.0249454
                ]
            }
        },
        {
            "type": "Feature",
            "properties": {
                "行政區": "大安區",
                "分隊": "臺大分隊",
                "電話": "(02)23633215",
                "地址": "臺北市大安區辛亥路1段臨138號",
                "備註": "開放時間06:00~23:00"
            },
            "geometry": {
                "type": "Point",
                "coordinates": [
                    121.5352768,
                    25.02242126
                ]
            }
        },
        {
            "type": "Feature",
            "properties": {
                "行政區": "大安區",
                "分隊": "臥龍分隊",
                "電話": "(02)23785530",
                "地址": "臺北市大安區基隆路3段臨24號",
                "備註": "開放時間06:00~17:00"
            },
            "geometry": {
                "type": "Point",
                "coordinates": [
                    121.5469328,
                    25.01937012
                ]
            }
        },
        {
            "type": "Feature",
            "properties": {
                "行政區": "大安區",
                "分隊": "新生分隊",
                "電話": "(02)27529383",
                "地址": "臺北市大安區建國南路1段臨173號",
                "備註": "開放時間06:00~23:00"
            },
            "geometry": {
                "type": "Point",
                "coordinates": [
                    121.537846,
                    25.039861
                ]
            }
        },
        {
            "type": "Feature",
            "properties": {
                "行政區": "大安區",
                "分隊": "敦化分隊",
                "電話": "(02)27786724",
                "地址": "臺北市大安區忠孝東路3段臨31號",
                "備註": "開放時間06:00~23:00"
            },
            "geometry": {
                "type": "Point",
                "coordinates": [
                    121.5370747,
                    25.04182076
                ]
            }
        },
        {
            "type": "Feature",
            "properties": {
                "行政區": "大安區",
                "分隊": "建南停車場",
                "電話": "(02)27000962",
                "地址": "臺北市大安區建國南路2段臨149號",
                "備註": "開放時間06:00~23:00，僅收受使用專用垃圾袋之一般垃圾"
            },
            "geometry": {
                "type": "Point",
                "coordinates": [
                    121.537853,
                    25.028822
                ]
            }
        },
        {
            "type": "Feature",
            "properties": {
                "行政區": "文山區",
                "分隊": "博嘉分隊",
                "電話": "(02)22397182",
                "地址": "臺北市文山區萬美街1段47號",
                "備註": "開放時間08:00~08:30(每周三、日、颱風天、停班日暫停開放)"
            },
            "geometry": {
                "type": "Point",
                "coordinates": [
                    121.568508,
                    25.002286
                ]
            }
        },
        {
            "type": "Feature",
            "properties": {
                "行政區": "文山區",
                "分隊": "景美分隊",
                "電話": "(02)29305836",
                "地址": "臺北市文山區溪洲街臨220號",
                "備註": "週三、周日開放時間為06:00~15:00，其餘開放時間為06:00~22:00，僅收受使用專用垃圾袋之一般垃圾及資源回收物(不含廚餘)"
            },
            "geometry": {
                "type": "Point",
                "coordinates": [
                    121.535599,
                    25.002447
                ]
            }
        },
        {
            "type": "Feature",
            "properties": {
                "行政區": "文山區",
                "分隊": "興隆分隊",
                "電話": "(02)89315653",
                "地址": "臺北市文山區景豐街臨82號對面(垃圾車駐點)",
                "備註": "收受時間為每周一、二、四、五、六上午07:00~08:00，僅收受專用垃圾袋之一般垃圾"
            },
            "geometry": {
                "type": "Point",
                "coordinates": [
                    121.545116,
                    25.001258
                ]
            }
        }
    ]
}